City_ID,City,Country,Lat,Lng,Max Temp,Humidity,Cloudiness,Wind Speed,Current Description
0,Busselton,AU,-33.65,115.3333,60.17,82,100,24.61,light rain
1,Fonte Boa,BR,-2.4959,-66.2662,72.68,98,100,1.14,overcast clouds
2,Matagami,CA,49.7502,-77.6328,64.51,77,75,9.22,broken clouds
3,Zaoyang,CN,32.1272,112.7542,79.02,73,92,4.54,overcast clouds
4,Rikitea,PF,-23.1203,-134.9692,72.59,75,18,9.19,few clouds
5,Kapaa,US,22.0752,-159.319,84.52,65,0,14.97,clear sky
6,Butaritari,KI,3.0707,172.7902,81.99,76,100,7.9,overcast clouds
7,Roma,US,43.2128,-75.4557,72.82,83,4,2.89,clear sky
8,Clyde River,CA,70.4692,-68.5914,52.03,71,75,10.36,broken clouds
9,Bredasdorp,ZA,-34.5322,20.0403,53.69,89,99,8.86,light rain
10,Punta Arenas,CL,-53.15,-70.9167,35.71,69,0,14.97,clear sky
11,Abu Dhabi,AE,24.4667,54.3667,98.71,53,0,4.61,clear sky
12,Saldanha,ZA,-33.0117,17.9442,55.45,79,99,11.5,overcast clouds
13,Ushuaia,AR,-54.8,-68.3,35.26,87,75,21.85,light rain
14,Jamestown,US,42.097,-79.2353,74.84,70,0,5.75,clear sky
15,Salalah,OM,17.0151,54.0924,77.09,94,100,6.91,overcast clouds
16,Margate,GB,51.3813,1.3862,63.3,84,100,1.01,overcast clouds
17,Genhe,CN,50.7833,121.5167,74.62,55,85,8.75,overcast clouds
18,Beringovskiy,RU,63.05,179.3167,45.37,87,100,4.79,light rain
19,Geraldton,AU,-28.7667,114.6,63.01,72,40,14.97,scattered clouds
20,Mataura,NZ,-46.1927,168.8643,44.47,64,5,2.86,clear sky
21,Albany,US,42.6001,-73.9662,77.41,79,48,8.81,scattered clouds
22,Ribeira Grande,PT,38.5167,-28.7,73.09,90,60,6.85,broken clouds
23,Inirida,CO,3.8653,-67.9239,73.24,98,100,2.42,overcast clouds
24,Jijiga,ET,9.35,42.8,58.77,83,76,18.39,broken clouds
25,Cape Town,ZA,-33.9258,18.4232,55.11,93,20,3.44,light rain
26,Oistins,BB,13.0667,-59.5333,80.69,74,40,11.5,scattered clouds
27,Hamilton,US,39.1834,-84.5333,83.03,72,0,0.0,haze
28,Tuktoyaktuk,CA,69.4541,-133.0374,68.0,60,75,9.22,broken clouds
29,Lata,PT,40.1629,-8.3327,63.07,90,0,1.39,clear sky
30,Constitucion,CL,-35.3333,-72.4167,52.39,94,100,6.96,overcast clouds
31,Hermanus,ZA,-34.4187,19.2345,53.8,81,83,12.41,light rain
32,Carnarvon,AU,-24.8667,113.6333,65.95,55,92,5.68,overcast clouds
33,Flagstaff,US,35.1981,-111.6513,89.26,39,20,8.05,few clouds
34,Atuona,PF,-9.8,-139.0333,77.58,77,14,15.28,few clouds
35,Nola,IT,40.922,14.5329,79.63,88,0,2.08,clear sky
36,Port Alfred,ZA,-33.5906,26.891,60.78,75,100,10.47,overcast clouds
37,Trairi,BR,-3.2778,-39.2689,79.29,78,63,12.62,broken clouds
38,Bengkulu,ID,-3.8004,102.2655,81.86,70,30,2.06,scattered clouds
39,Khani,GE,41.9563,42.9566,53.17,91,12,4.12,few clouds
40,Veraval,IN,20.9,70.3667,80.98,83,100,15.9,light rain
41,Coquimbo,CL,-29.9533,-71.3436,55.13,82,100,2.3,overcast clouds
42,Eenhana,NA,-17.4667,16.3333,55.31,49,2,6.51,clear sky
43,Ponta Do Sol,PT,32.6667,-17.1,70.72,70,8,5.21,clear sky
44,Korla,CN,41.7597,86.1469,88.21,18,0,3.04,clear sky
45,Bluff,NZ,-46.6,168.3333,44.8,71,1,4.25,clear sky
46,Wewak,PG,-3.5534,143.6268,85.03,69,97,6.13,overcast clouds
47,Barrow,US,71.2906,-156.7887,41.02,87,100,10.36,mist
48,Tautira,PF,-17.7333,-149.15,76.57,78,33,10.13,scattered clouds
49,Kloulklubed,PW,7.0419,134.2556,81.1,78,100,8.7,overcast clouds
50,Port Hedland,AU,-20.3167,118.5667,78.85,50,0,13.8,clear sky
51,Hobart,AU,-42.8794,147.3294,58.26,71,75,5.75,broken clouds
52,Muros,ES,42.7762,-9.0603,63.09,79,0,9.95,clear sky
53,Bilma,NE,18.6853,12.9164,90.61,30,60,4.74,broken clouds
54,Arkadak,RU,51.9326,43.4978,57.09,86,56,4.92,broken clouds
55,Codrington,AU,-38.2667,141.9667,53.92,92,100,12.64,overcast clouds
56,Jiuquan,CN,39.7432,98.5174,85.53,12,0,6.55,clear sky
57,Souillac,MU,-20.5167,57.5167,68.38,88,40,10.36,scattered clouds
58,Hilo,US,19.7297,-155.09,82.27,82,100,10.36,moderate rain
59,Tongchuan,CN,35.0806,109.0897,75.4,62,0,3.96,clear sky
60,Sitka,US,57.0531,-135.33,53.49,94,100,8.05,light rain
61,Ahipara,NZ,-35.1667,173.1667,57.63,67,100,13.24,overcast clouds
62,Imeni Poliny Osipenko,RU,52.4201,136.4853,60.94,78,100,3.69,overcast clouds
63,Bardiyah,LY,31.7561,25.0865,75.36,77,0,11.81,clear sky
64,Nawabganj,BD,24.5911,88.271,85.23,72,100,8.95,overcast clouds
65,Palmer,US,42.1584,-72.3287,80.15,70,20,8.05,few clouds
66,San Carlos De Bariloche,AR,-41.1456,-71.3082,39.43,61,100,0.0,moderate rain
67,Dombarovskiy,RU,50.7587,59.5386,70.75,46,96,6.51,overcast clouds
68,Xiuyan,CN,40.2928,123.2744,75.79,87,100,8.05,moderate rain
69,Mumford,GH,5.2618,-0.759,73.78,87,21,8.43,few clouds
70,Mecca,SA,21.4267,39.8261,86.09,57,51,4.21,broken clouds
71,Narsaq,GL,60.9167,-46.05,47.28,78,62,3.18,broken clouds
72,Bandarbeyla,SO,9.4942,50.8122,76.75,76,4,27.34,clear sky
73,Puerto Ayora,EC,-0.7393,-90.3518,69.55,90,10,1.99,clear sky
74,Sao Sebastiao,BR,-23.76,-45.4097,65.7,73,43,4.56,scattered clouds
75,Rio Gallegos,AR,-51.6226,-69.2181,30.25,86,0,16.11,clear sky
76,Pacific Grove,US,36.6177,-121.9166,70.56,75,0,11.5,clear sky
77,Port Blair,IN,11.6667,92.75,78.84,94,75,2.3,broken clouds
78,Pevek,RU,69.7008,170.3133,33.39,91,99,6.76,overcast clouds
79,Vaini,TO,-21.2,-175.2,75.36,88,75,12.66,broken clouds
80,Sibay,RU,52.7181,58.6658,59.58,78,1,4.65,clear sky
81,Kodiak,US,57.79,-152.4072,53.11,76,75,8.05,broken clouds
82,Nikolskoye,RU,59.7035,30.7861,66.09,83,9,5.41,clear sky
83,Kushima,JP,31.4583,131.2333,86.14,52,88,0.94,overcast clouds
84,Half Moon Bay,US,37.4636,-122.4286,80.55,73,0,18.41,haze
85,Cidreira,BR,-30.1811,-50.2056,63.12,94,99,2.08,light rain
86,Lompoc,US,34.6391,-120.4579,70.84,79,75,28.01,broken clouds
87,Sonoita,MX,31.85,-112.8333,99.27,25,40,11.92,scattered clouds
88,Tecoanapa,MX,16.5167,-98.75,81.25,80,26,5.3,scattered clouds
89,Norman Wells,CA,65.282,-126.8329,80.64,36,75,9.22,broken clouds
90,Rafsanjan,IR,30.4067,55.9939,83.84,27,0,3.0,clear sky
91,Connersville,US,39.6412,-85.1411,78.62,77,7,2.73,clear sky
92,Novobirilyussy,RU,56.9514,90.6661,56.66,96,100,8.57,overcast clouds
93,Quatre Cocos,MU,-20.2078,57.7625,68.11,75,6,15.66,light rain
94,Eureka,US,40.8021,-124.1637,63.93,77,3,5.01,clear sky
95,Tommot,RU,58.9564,126.2925,85.05,49,87,2.44,overcast clouds
96,Canyon Lake,US,29.8752,-98.2625,93.18,47,23,18.99,few clouds
97,Hualmay,PE,-11.0964,-77.6139,61.36,85,42,7.52,scattered clouds
98,Tiksi,RU,71.6872,128.8694,46.9,84,98,6.17,overcast clouds
99,Sao Joao Da Barra,BR,-21.6403,-41.0511,71.28,88,0,12.57,clear sky
100,East London,ZA,-33.0153,27.9116,63.54,67,100,11.16,overcast clouds
101,Atambua,ID,-9.1061,124.8925,78.46,48,34,2.86,scattered clouds
102,Gimli,CA,50.6336,-96.9907,66.18,76,63,6.08,broken clouds
103,Sola,VU,-13.8833,167.55,80.64,77,8,11.83,clear sky
104,Vanavara,RU,60.34,102.2797,70.38,59,100,7.9,overcast clouds
105,Dunedin,NZ,-45.8742,170.5036,50.81,62,14,8.99,few clouds
106,Kaitangata,NZ,-46.2817,169.8464,44.96,75,3,2.24,clear sky
107,Mangalam,IN,9.7667,78.6667,81.3,75,100,3.42,overcast clouds
108,Bereda,ES,43.2686,-7.5406,56.14,100,12,5.19,few clouds
109,Georgetown,MY,5.4112,100.3354,84.13,90,20,5.01,few clouds
110,Longyearbyen,SJ,78.2186,15.6401,47.48,86,100,3.65,overcast clouds
111,Kavaratti,IN,10.5669,72.642,81.1,79,100,19.89,overcast clouds
112,Tasiilaq,GL,65.6145,-37.6368,33.96,78,27,7.47,scattered clouds
113,Airai,TL,-8.9266,125.4092,67.21,45,23,3.58,few clouds
114,Tokur,RU,53.1333,132.9,74.21,43,74,4.94,broken clouds
115,Castro,BR,-24.7911,-50.0119,57.36,70,58,2.19,broken clouds
116,Yellowknife,CA,62.456,-114.3525,68.52,45,40,12.66,scattered clouds
117,Shitanjing,CN,39.2342,106.3439,76.86,22,0,6.49,clear sky
118,Kirakira,SB,-10.4544,161.9205,84.97,68,8,5.61,clear sky
119,Saint-Philippe,RE,-21.3585,55.7679,66.22,83,39,14.12,light rain
120,Qaanaaq,GL,77.484,-69.3632,36.91,98,100,13.89,light rain
121,Ancud,CL,-41.8697,-73.8203,41.23,96,100,12.15,light rain
122,Le Port,RE,-20.9373,55.2919,68.25,66,19,7.85,few clouds
123,Atar,MR,20.5169,-13.0499,85.15,52,100,6.2,light rain
124,Hobyo,SO,5.3505,48.5268,75.16,78,23,20.49,few clouds
125,Khatanga,RU,71.9667,102.5,40.66,90,100,13.0,light rain
126,Chuy,UY,-33.6971,-53.4616,56.35,96,100,4.63,overcast clouds
127,Bay Roberts,CA,47.5999,-53.2648,69.66,92,4,6.8,clear sky
128,Boende,CD,-0.2167,20.8667,69.06,98,95,2.26,overcast clouds
129,Mar Del Plata,AR,-38.0023,-57.5575,48.87,89,81,5.01,mist
130,San Jeronimo,PE,-11.9472,-75.2829,47.86,77,12,3.42,few clouds
131,Mahanoro,MG,-19.9,48.8,64.22,91,95,5.26,light rain
132,Bethel,US,41.3712,-73.414,79.11,88,0,0.0,clear sky
133,Esperance,AU,-33.8667,121.9,61.2,61,3,20.54,clear sky
134,Leningradskiy,RU,69.3833,178.4167,38.91,79,67,7.38,broken clouds
135,Esmeraldas,BR,-19.7625,-44.3139,65.44,57,71,3.71,broken clouds
136,Severo-Kurilsk,RU,50.6789,156.125,56.19,87,80,8.68,broken clouds
137,Fairbanks,US,64.8378,-147.7164,62.6,61,100,9.22,overcast clouds
138,Iglesias,IT,39.3114,8.535,75.79,45,0,2.86,clear sky
139,Saint-Francois,FR,46.4154,3.9054,69.24,78,0,5.75,clear sky
140,Divnomorskoye,RU,44.5011,38.1353,68.13,78,16,1.57,few clouds
141,Muroto,JP,33.2833,134.15,79.25,72,51,6.02,broken clouds
142,San Cristobal,VE,7.7669,-72.225,75.38,97,76,3.11,broken clouds
143,Zhigansk,RU,66.7697,123.3711,62.55,63,49,10.67,scattered clouds
144,Belle Fourche,US,44.6714,-103.8522,93.43,13,77,7.36,broken clouds
145,Arraial Do Cabo,BR,-22.9661,-42.0278,70.86,89,4,18.63,clear sky
146,Pisco,PE,-13.7,-76.2167,60.85,82,75,3.44,mist
147,Tha Bo,TH,17.85,102.5814,80.49,94,40,2.3,scattered clouds
148,Srednekolymsk,RU,67.45,153.6833,59.47,43,3,12.84,clear sky
149,Hithadhoo,MV,-0.6,73.0833,82.09,73,100,6.93,overcast clouds
150,Bulgan,MN,48.8125,103.5347,58.95,72,52,3.33,broken clouds
151,New Norfolk,AU,-42.7826,147.0587,57.92,75,100,3.87,overcast clouds
152,Oranjemund,NA,-28.55,16.4333,52.84,92,87,6.49,overcast clouds
153,Saskylakh,RU,71.9167,114.0833,58.5,52,98,7.29,overcast clouds
154,Visby,SE,57.6409,18.296,64.62,77,40,9.22,scattered clouds
155,Lebu,CL,-37.6167,-73.65,53.06,95,100,12.95,moderate rain
156,Ambilobe,MG,-13.2,49.05,60.85,83,0,3.91,clear sky
157,Kovdor,RU,67.5662,30.4758,52.65,91,28,2.48,scattered clouds
158,Namibe,AO,-15.1961,12.1522,61.86,83,0,4.03,clear sky
159,Bemidji,US,47.4736,-94.8803,75.29,65,0,0.0,clear sky
160,Nizwa,OM,22.9333,57.5333,84.22,69,98,3.04,overcast clouds
161,Victoria,HK,22.2855,114.1577,91.96,73,0,8.01,clear sky
162,Pochutla,MX,15.7432,-96.4661,79.83,88,75,3.6,broken clouds
163,Te Anau,NZ,-45.4167,167.7167,42.78,84,82,1.36,broken clouds
164,Zapadnaya Dvina,RU,56.259,32.0745,56.75,86,9,3.65,clear sky
165,Luderitz,NA,-26.6481,15.1594,57.29,67,44,14.7,scattered clouds
166,Lavrentiya,RU,65.5833,-171.0,47.05,75,95,15.1,overcast clouds
167,Kieta,PG,-6.2167,155.6333,85.66,63,4,6.33,clear sky
168,Balsas,BR,-7.5325,-46.0356,76.46,39,95,2.59,overcast clouds
169,Smoky Lake,CA,54.1169,-112.4686,66.36,67,88,6.91,overcast clouds
170,Alice Springs,AU,-23.7,133.8833,72.95,32,0,5.75,clear sky
171,Yinchuan,CN,38.4681,106.2731,80.78,20,0,6.26,clear sky
172,Bathsheba,BB,13.2167,-59.5167,81.21,87,40,11.5,scattered clouds
173,Ariquemes,BR,-9.9133,-63.0408,78.53,56,60,0.4,broken clouds
174,Mao,ES,39.8885,4.2658,75.76,100,0,3.44,clear sky
175,Waddan,LY,29.1614,16.139,74.46,49,0,5.73,clear sky
176,Faanui,PF,-16.4833,-151.75,78.6,75,11,11.48,few clouds
177,Turiacu,BR,-1.6633,-45.3717,73.35,95,43,3.0,scattered clouds
178,Red Bluff,US,40.1785,-122.2358,100.58,11,0,11.5,clear sky
179,Lagoa,PT,39.05,-27.9833,71.55,92,100,8.25,overcast clouds
180,Jiexiu,CN,37.0244,111.9125,76.37,50,0,2.68,clear sky
181,Dalby,AU,-27.1833,151.2667,63.16,58,55,18.1,broken clouds
182,Provideniya,RU,64.3833,-173.3,50.63,63,98,4.65,overcast clouds
183,Zhezkazgan,KZ,47.8043,67.7144,66.18,37,0,8.95,clear sky
184,Grande Riviere Du Nord,HT,19.5833,-72.1833,76.82,80,100,2.21,overcast clouds
185,Charters Towers,AU,-20.1,146.2667,69.8,49,0,9.15,clear sky
186,Ipixuna,BR,-1.7625,-48.8043,76.48,83,98,4.61,overcast clouds
187,Sunrise Manor,US,36.2111,-115.0731,110.39,11,0,13.8,clear sky
188,Baltasi,RU,56.3462,50.2062,61.59,86,9,5.53,clear sky
189,Camaqua,BR,-30.8511,-51.8122,63.91,96,100,4.41,heavy intensity rain
190,Chabahar,IR,25.2919,60.643,82.87,83,100,9.64,overcast clouds
191,The Valley,AI,18.217,-63.0578,82.09,74,0,20.92,clear sky
192,Torbay,CA,47.6666,-52.7314,68.88,90,100,11.5,overcast clouds
193,Yar-Sale,RU,66.8333,70.8333,45.43,93,100,13.4,overcast clouds
194,Sovetskiy,RU,61.3614,63.5842,52.03,59,37,5.73,scattered clouds
195,Jojoima,SL,7.8792,-10.7878,70.23,99,98,1.48,overcast clouds
196,Puerto Baquerizo Moreno,EC,-0.9,-89.6,69.1,77,10,11.59,clear sky
197,Mount Gambier,AU,-37.8333,140.7667,55.31,88,100,12.66,overcast clouds
198,Lerwick,GB,60.1545,-1.1494,51.8,81,100,8.34,overcast clouds
199,Huarmey,PE,-10.0681,-78.1522,62.06,88,47,7.45,scattered clouds
200,Saint-Pierre,RE,-21.3393,55.4781,67.91,73,40,5.75,scattered clouds
201,Port Elizabeth,ZA,-33.918,25.5701,58.32,89,0,8.05,clear sky
202,Malim,PH,7.452,123.4312,80.13,80,83,1.19,heavy intensity rain
203,Uthal,PK,25.8072,66.6219,83.01,86,99,4.65,overcast clouds
204,Saint George,US,37.1041,-113.5841,106.63,14,0,12.66,clear sky
205,Dukat,RU,62.55,155.55,62.37,32,15,7.38,few clouds
206,Grindavik,IS,63.8424,-22.4338,51.75,100,75,5.75,mist
207,Bonthe,SL,7.5264,-12.505,76.35,84,99,8.5,light rain
208,Bambous Virieux,MU,-20.3428,57.7575,68.25,88,40,10.36,scattered clouds
209,Mataram,ID,-8.5833,116.1167,83.21,63,11,11.5,few clouds
210,Predivinsk,RU,57.0669,93.4378,65.52,73,8,7.11,clear sky
211,Velasco Ibarra,EC,-1.05,-79.6167,72.48,79,100,2.82,overcast clouds
212,Parabel,RU,58.6978,81.4825,57.61,69,3,13.8,clear sky
213,Mahebourg,MU,-20.4081,57.7,68.29,88,40,10.36,scattered clouds
214,Hendek,TR,40.7994,30.7481,61.07,60,0,4.21,clear sky
215,Vega De Alatorre,MX,20.0333,-96.6333,82.17,79,11,10.6,few clouds
216,Guerrero Negro,MX,27.9769,-114.0611,69.01,78,5,22.39,clear sky
217,Isangel,VU,-19.55,169.2667,80.71,83,100,8.05,moderate rain
218,Rio Das Pedras,BR,-22.8433,-47.6061,64.56,46,8,3.2,clear sky
219,Avera,US,33.194,-82.5271,80.65,68,99,4.68,overcast clouds
220,Cap Malheureux,MU,-19.9842,57.6142,67.46,78,1,5.01,clear sky
221,Grand Gaube,MU,-20.0064,57.6608,68.4,76,1,5.99,clear sky
222,Halifax,CA,44.6453,-63.5724,73.29,91,0,2.3,clear sky
223,Port Lincoln,AU,-34.7333,135.8667,59.92,71,3,5.7,clear sky
224,Tessalit,ML,20.1986,1.0114,93.0,22,68,5.12,broken clouds
225,Wakkanai,JP,45.4094,141.6739,62.58,88,75,17.27,mist
226,Lahij,YE,13.1667,44.5833,83.12,57,15,4.61,few clouds
227,Senanga,ZM,-16.1167,23.2667,58.62,52,79,4.36,broken clouds
228,Nabire,ID,-3.3667,135.4833,82.51,79,25,2.59,scattered clouds
229,Prince Rupert,CA,54.3161,-130.3201,60.49,76,0,12.66,clear sky
230,Haines Junction,CA,60.7522,-137.5108,58.95,44,99,8.05,overcast clouds
231,Iqaluit,CA,63.7506,-68.5145,49.73,81,75,8.05,broken clouds
232,Chokurdakh,RU,70.6333,147.9167,60.62,41,67,10.78,broken clouds
233,Mazamari,PE,-11.3258,-74.5308,72.81,75,55,1.54,broken clouds
234,Brasilia De Minas,BR,-16.2064,-44.4333,63.23,60,0,5.28,clear sky
235,Baykit,RU,61.67,96.37,67.91,71,100,4.23,overcast clouds
236,Santo Antonio Do Ica,BR,-3.1022,-67.9397,72.48,99,100,1.21,overcast clouds
237,Abengourou,CI,6.7297,-3.4964,66.58,97,100,2.35,overcast clouds
238,Talnakh,RU,69.4865,88.3972,76.21,37,14,5.73,few clouds
239,Hofn,IS,64.2539,-15.2082,52.0,90,94,4.76,overcast clouds
240,Astorga,BR,-23.2325,-51.6656,68.23,43,99,6.67,overcast clouds
241,Great Yarmouth,GB,52.6083,1.7305,61.02,80,79,4.12,broken clouds
242,Sibolga,ID,1.7427,98.7792,83.46,67,61,1.39,broken clouds
243,Walvis Bay,NA,-22.9575,14.5053,55.09,87,6,2.3,clear sky
244,Thunder Bay,CA,48.4001,-89.3168,76.98,50,40,5.75,scattered clouds
245,Abha,SA,18.2164,42.5053,66.02,77,20,4.61,few clouds
246,Choya,RU,52.0108,86.5467,61.81,90,57,1.72,broken clouds
247,Le Vauclin,MQ,14.5452,-60.8388,78.85,83,75,3.44,broken clouds
248,Charyshskoye,RU,51.3978,83.5598,61.7,82,90,0.76,overcast clouds
249,Ambon,ID,-3.6954,128.1814,82.54,69,40,5.75,scattered clouds
250,Kaoma,ZM,-14.7833,24.8,52.07,71,10,5.75,clear sky
251,Hasaki,JP,35.7333,140.8333,93.29,72,0,18.14,clear sky
252,Ganzhou,CN,28.8184,115.4327,95.32,51,17,7.72,few clouds
253,Garowe,SO,8.4054,48.4845,73.72,68,4,23.29,clear sky
254,Faya,SA,18.3851,42.4509,66.31,58,97,4.79,overcast clouds
255,Kodinsk,RU,58.6881,99.1844,70.29,66,100,1.19,overcast clouds
256,Belyy Yar,RU,53.6039,91.3903,65.86,72,0,13.42,clear sky
257,Shache,CN,38.4167,77.2406,86.43,13,0,4.36,clear sky
258,Aykhal,RU,66.0,111.5,67.84,58,3,6.49,clear sky
259,Bambanglipuro,ID,-7.95,110.2833,78.84,77,98,10.74,overcast clouds
260,Abnub,EG,27.2696,31.1511,79.02,40,18,12.8,few clouds
261,Klaksvik,FO,62.2266,-6.589,49.12,82,100,6.71,overcast clouds
262,Asfi,MA,32.2994,-9.2372,76.21,72,88,8.3,overcast clouds
263,Nichinan,JP,31.6,131.3667,82.08,60,75,2.48,broken clouds
264,Hirara,JP,24.8,125.2833,89.87,74,20,11.5,few clouds
265,Ozernovskiy,RU,51.5,156.5167,56.37,89,83,6.96,broken clouds
266,Almenara,BR,-16.1836,-40.6944,64.92,89,0,1.5,light rain
267,Kurilsk,RU,45.2333,147.8833,59.9,90,100,2.57,overcast clouds
268,Belmonte,BR,-15.8631,-38.8828,70.86,86,17,7.25,few clouds
269,Washington,US,47.5001,-120.5015,84.9,30,0,8.39,clear sky
270,Auki,SB,-8.7676,160.7034,85.64,62,2,4.79,clear sky
271,Puerto Maldonado,PE,-12.6,-69.1833,74.75,68,1,1.12,clear sky
272,Katsuura,JP,35.1333,140.3,82.36,71,0,19.98,clear sky
273,Acarau,BR,-2.8856,-40.12,79.2,79,36,17.02,scattered clouds
274,Coihaique,CL,-45.5752,-72.0662,19.35,93,100,4.61,overcast clouds
275,Upernavik,GL,72.7868,-56.1549,42.3,95,100,13.13,overcast clouds
276,Vredendal,ZA,-31.6683,18.5012,52.57,88,100,1.9,overcast clouds
277,Victor Harbor,AU,-35.5667,138.6167,59.68,89,28,10.96,scattered clouds
278,Marsa Matruh,EG,31.3525,27.2453,73.6,73,0,5.75,clear sky
279,Horqueta,PY,-23.3428,-57.0597,71.38,43,68,3.98,broken clouds
280,Naryan-Mar,RU,67.6713,53.087,48.56,94,100,13.18,light rain
281,Avarua,CK,-21.2078,-159.775,80.65,74,40,13.8,scattered clouds
282,Areia Branca,BR,-4.9561,-37.1369,75.42,81,61,14.0,broken clouds
283,Cherskiy,RU,68.75,161.3,53.38,47,23,2.13,few clouds
284,Asau,RO,46.4333,26.4,65.95,90,50,3.87,scattered clouds
285,Illapel,CL,-31.6308,-71.1653,56.37,82,0,1.9,clear sky
286,Sattahip,TH,12.6664,100.9007,86.99,83,20,9.22,few clouds
287,Dehloran,IR,32.6941,47.2679,90.81,14,0,9.57,clear sky
288,Kavieng,PG,-2.5744,150.7967,83.77,72,25,9.62,light rain
289,Vao,NC,-22.6667,167.4833,73.87,89,100,26.15,light rain
290,Dikson,RU,73.5069,80.5464,51.39,81,92,14.27,overcast clouds
291,Najran,SA,17.4924,44.1277,84.85,42,100,6.69,overcast clouds
292,Tigil,RU,57.8,158.6667,72.63,34,5,9.44,clear sky
293,Mehamn,NO,71.0357,27.8492,51.75,82,75,18.41,broken clouds
294,San Policarpo,PH,12.1791,125.5072,85.37,70,80,2.35,broken clouds
295,Flin Flon,CA,54.7682,-101.865,54.95,74,100,6.98,overcast clouds
296,Yaan,NG,7.3833,8.5667,71.58,96,99,6.62,light rain
297,Goderich,CA,43.7501,-81.7165,79.12,44,31,8.05,scattered clouds
298,Anadyr,RU,64.75,177.4833,50.5,71,75,10.22,broken clouds
299,Shama,CN,33.6102,104.2852,71.2,48,0,1.25,clear sky
300,Itarema,BR,-2.9248,-39.9167,79.12,80,26,17.13,scattered clouds
301,Sinop,TR,41.7711,34.8709,58.08,64,0,5.64,clear sky
302,Thompson,CA,55.7435,-97.8558,57.36,82,100,5.75,overcast clouds
303,Gopalpur,IN,19.2667,84.9167,82.87,80,100,5.28,moderate rain
304,Grimshaw,CA,56.1834,-117.6027,69.42,40,20,5.75,few clouds
305,Sabaudia,IT,41.3003,13.0282,77.79,97,3,4.83,clear sky
306,Camacha,PT,33.0833,-16.3333,67.42,73,75,9.22,broken clouds
307,Ixtapa,MX,20.7,-105.2,79.52,93,100,2.53,overcast clouds
308,Floro,NO,61.5996,5.0328,57.16,82,100,4.61,overcast clouds
309,Kardymovo,RU,54.8902,32.4311,56.52,84,2,1.28,clear sky
310,Amahai,ID,-3.3333,128.9167,79.48,71,63,5.97,broken clouds
311,Whitehorse,CA,60.7161,-135.0538,55.02,69,75,11.5,broken clouds
312,Aklavik,CA,68.2191,-135.0107,61.11,73,100,14.5,light rain
313,Ballina,AU,-28.8667,153.5667,62.02,94,98,19.17,overcast clouds
314,Ust-Koksa,RU,50.2696,85.6108,59.7,78,26,1.59,scattered clouds
315,Kibara,TZ,-2.15,33.45,68.31,56,15,13.29,few clouds
316,Kefamenanu,ID,-9.4467,124.4781,77.52,48,72,8.55,broken clouds
317,Tuatapere,NZ,-46.1333,167.6833,47.08,71,11,2.71,few clouds
318,Camacari,BR,-12.6975,-38.3242,76.77,84,100,3.58,overcast clouds
319,Nurota,UZ,40.5614,65.6886,90.09,18,0,11.07,clear sky
320,Chernyshevskiy,RU,63.0128,112.4714,73.78,50,36,6.69,scattered clouds
321,Xining,CN,36.6167,101.7667,63.19,47,0,2.84,clear sky
322,Petropavlovsk-Kamchatskiy,RU,53.0452,158.6483,61.39,67,75,13.42,broken clouds
323,Karratha,AU,-20.7377,116.8463,74.62,47,0,9.66,clear sky
324,Roccastrada,IT,43.0099,11.1665,75.88,63,0,2.44,clear sky
325,Acapulco,MX,16.8634,-99.8901,81.19,81,64,5.3,broken clouds
326,Zambezi,ZM,-13.5432,23.1047,54.54,57,65,5.66,broken clouds
327,La Ronge,CA,55.1001,-105.2842,57.45,67,100,9.22,overcast clouds
328,Bilibino,RU,68.0546,166.4372,51.44,49,7,7.07,clear sky
329,Skibbereen,IE,51.55,-9.2667,62.11,94,100,13.33,light rain
330,Buraydah,SA,26.326,43.975,84.65,14,69,4.52,broken clouds
331,Hambantota,LK,6.1241,81.1185,79.14,94,20,11.5,few clouds
332,Marawi,PH,7.9986,124.2928,78.82,75,48,2.04,scattered clouds
333,Creston,US,41.0586,-94.3614,83.71,74,0,6.91,clear sky
334,Sinnar,SD,13.5691,33.5672,82.27,59,26,9.28,scattered clouds
335,Pangnirtung,CA,66.1451,-65.7125,50.7,65,64,1.59,broken clouds
336,Andrews,US,32.3187,-102.5457,90.0,33,0,13.8,clear sky
337,Hatillo,PR,18.4863,-66.8254,83.08,80,88,8.99,overcast clouds
338,Dunda,TZ,-8.1167,34.25,54.57,85,0,1.83,clear sky
339,Nanma,CN,36.1817,118.1583,67.1,97,100,7.94,overcast clouds
340,Yulara,AU,-25.2406,130.9889,70.72,24,5,7.65,clear sky
341,Cobija,BO,-11.0267,-68.7692,75.29,59,0,1.83,clear sky
342,Murud,IN,18.3258,72.965,78.96,84,100,8.3,overcast clouds
343,Tomohon,ID,1.3346,124.8392,77.94,70,19,2.8,few clouds
344,Havoysund,NO,70.9963,24.6622,52.03,90,100,15.73,overcast clouds
345,Miri,MY,4.4148,114.0089,82.54,83,20,6.91,few clouds
346,Cabo San Lucas,MX,22.8909,-109.9124,89.51,61,46,1.01,scattered clouds
347,Shipley,GB,53.8333,-1.7667,59.92,90,75,4.61,broken clouds
348,Kota Bahru,MY,6.1333,102.2386,80.55,88,20,2.3,few clouds
349,Izhma,RU,65.0083,53.9113,50.47,80,100,8.28,light rain
350,Kumla,SE,59.1277,15.1434,57.15,94,100,8.05,overcast clouds
351,Bairiki,KI,1.3292,172.9752,80.6,89,75,8.05,light rain
352,Ostrovnoy,RU,68.0531,39.5131,51.71,88,98,16.24,overcast clouds
353,Priladozhskiy,RU,59.85,31.4833,62.53,1,10,7.54,clear sky
354,Padang,ID,-0.9492,100.3543,80.65,69,91,1.7,overcast clouds
355,Garwolin,PL,51.8975,21.6147,68.79,93,0,4.16,clear sky
356,Adrar,MR,20.5022,-10.0711,87.67,45,71,8.21,broken clouds
357,Ilulissat,GL,69.2167,-51.1,43.14,94,100,5.77,light rain
358,Kidal,ML,18.4411,1.4078,92.5,22,11,2.1,few clouds
359,Usinsk,RU,65.9939,57.5281,48.2,76,100,13.29,light rain
360,Kondinskoye,RU,59.6481,67.41,54.21,62,40,10.04,scattered clouds
361,Kamyaran,IR,34.7956,46.9355,65.37,28,0,3.6,clear sky
362,Poptun,GT,16.3311,-89.4169,70.95,87,100,5.03,overcast clouds
363,Novyy Svit,UA,47.8059,38.0211,58.23,86,75,9.26,broken clouds
364,Yingkou,CN,40.6648,122.2283,78.62,77,100,8.79,light rain
365,Sao Filipe,CV,14.8961,-24.4956,74.52,83,56,1.19,broken clouds
366,Jiangyan,CN,32.5061,120.1428,88.48,73,81,15.17,broken clouds
367,Bani,DO,18.2833,-70.3333,74.64,79,75,12.03,broken clouds
368,Umm Lajj,SA,25.0213,37.2685,85.75,52,22,9.62,few clouds
369,Chicama,PE,-7.8447,-79.1469,59.54,86,25,4.9,scattered clouds
370,Kruisfontein,ZA,-34.0033,24.7314,51.75,77,100,6.04,overcast clouds
371,Quarai,BR,-30.3875,-56.4514,64.42,94,100,7.58,overcast clouds
372,Hailar,CN,49.2,119.7,77.86,53,100,10.18,overcast clouds
373,Pathein,MM,16.7833,94.7333,76.69,90,100,5.46,overcast clouds
374,Springbok,ZA,-29.6643,17.8865,47.3,56,100,4.29,overcast clouds
375,Bereznik,RU,62.8551,42.7072,63.18,85,67,4.81,broken clouds
376,Sosnovo-Ozerskoye,RU,52.5249,111.5418,64.98,86,94,11.3,moderate rain
377,Anito,PH,12.4497,125.2886,86.77,67,98,3.02,overcast clouds
378,Opole,PL,50.5,18.0,65.39,71,3,1.68,clear sky
379,San Andres,CO,12.5847,-81.7006,82.42,83,100,6.91,overcast clouds
380,Talcahuano,CL,-36.7167,-73.1167,51.48,100,100,4.61,light intensity drizzle
381,Blama,SL,7.8736,-11.3433,70.97,99,100,1.54,overcast clouds
382,Fort Frances,CA,48.5999,-93.4003,66.88,72,58,6.15,broken clouds
383,Letlhakane,BW,-21.4167,25.5833,55.0,64,35,7.94,scattered clouds
384,Chapleau,CA,47.8405,-83.4034,68.09,68,75,5.75,broken clouds
385,Kinkala,CG,-4.3614,14.7644,67.42,81,96,2.71,overcast clouds
386,Dingle,PH,10.9995,122.6711,85.44,73,88,4.32,overcast clouds
387,Bonavista,CA,48.6499,-53.1147,62.67,90,0,12.35,clear sky
388,Mandalgovi,MN,45.7625,106.2708,69.4,34,71,14.45,broken clouds
389,Port Hardy,CA,50.6996,-127.4199,62.78,72,75,14.97,broken clouds
390,Bondoukou,CI,8.0333,-2.8,67.8,97,72,3.96,broken clouds
391,Dosso,NE,13.049,3.1937,81.34,69,100,7.58,overcast clouds
392,Dehui,CN,44.5333,125.7,76.64,67,90,4.41,overcast clouds
393,Pangkalanbuun,ID,-2.6833,111.6167,83.43,73,48,3.76,scattered clouds
394,Grado,ES,43.388,-6.0743,65.68,94,100,1.14,overcast clouds
395,Praia,CV,14.9215,-23.5087,77.54,88,75,2.3,light intensity drizzle
396,Gamba,GA,-2.65,10.0,67.78,89,33,5.64,scattered clouds
397,Moron,AR,-34.6534,-58.6198,53.92,88,7,7.47,clear sky
398,Nyurba,RU,63.2842,118.3319,75.09,58,78,3.02,broken clouds
399,Xai-Xai,MZ,-25.0519,33.6442,61.43,94,0,4.97,clear sky
400,Luban,PL,51.1201,15.2877,63.01,82,98,3.53,overcast clouds
401,Kindu,CD,-2.95,25.95,69.93,87,63,2.98,broken clouds
402,Magway,MM,20.15,94.9167,78.37,85,100,9.22,overcast clouds
403,Puerto Suarez,BO,-18.95,-57.8,72.3,44,4,1.45,clear sky
404,Porto Novo,BJ,6.4965,2.6036,76.82,88,99,5.68,overcast clouds
405,Bubaque,GW,11.2833,-15.8333,78.37,86,100,16.8,moderate rain
406,Zarumilla,PE,-3.5031,-80.2731,69.98,83,100,5.75,overcast clouds
407,Namatanai,PG,-3.6667,152.4333,85.03,64,2,6.64,clear sky
408,Domoni,KM,-12.2569,44.5319,73.54,75,1,9.26,clear sky
409,Cayenne,GF,4.9333,-52.3333,79.09,1,75,0.0,broken clouds
410,Alta Floresta,BR,-9.8756,-56.0861,76.39,38,82,1.3,broken clouds
411,Boshnyakovo,RU,49.6333,142.1667,58.8,97,97,4.18,overcast clouds
412,Ciudad Guayana,VE,8.3533,-62.6528,80.53,90,66,6.08,broken clouds
413,Gat,IL,31.61,34.7642,75.88,100,0,0.89,clear sky
414,Fallon,US,39.4735,-118.7774,93.45,6,0,21.74,clear sky
415,Rabo De Peixe,PT,37.8,-25.5833,70.29,69,20,2.3,few clouds
416,Mana,GF,5.6592,-53.7767,77.54,89,99,6.44,overcast clouds
417,Yashkul,RU,46.1711,45.3435,68.27,66,33,13.02,scattered clouds
418,Morondava,MG,-20.2833,44.2833,68.72,71,82,4.27,broken clouds
419,Westport,US,41.1415,-73.3579,80.82,87,21,1.99,few clouds
420,Takoradi,GH,4.8845,-1.7554,74.03,82,64,7.0,broken clouds
421,Altay,CN,47.8667,88.1167,68.7,55,95,4.52,overcast clouds
422,Sioux Lookout,CA,50.1001,-91.917,63.72,63,27,7.67,scattered clouds
423,Giulesti,RO,47.8167,23.9333,65.98,61,16,3.29,few clouds
424,Paredon,MX,16.0333,-93.8667,81.12,80,99,2.66,overcast clouds
425,Lima,PE,-12.0432,-77.0282,57.9,86,100,6.91,overcast clouds
426,Ponta Delgada,PT,37.7333,-25.6667,71.51,88,20,2.3,few clouds
427,Birnin Kebbi,NG,12.4539,4.1975,77.14,82,100,9.13,light rain
428,Sorland,NO,67.667,12.6934,49.86,86,100,16.37,overcast clouds
429,Espanola,US,35.9911,-106.0806,86.38,39,97,6.49,overcast clouds
430,Noumea,NC,-22.2763,166.4572,77.0,99,100,2.13,light rain
431,Rovaniemi,FI,66.5,25.7167,54.81,66,0,6.91,clear sky
432,Ughelli,NG,5.4899,6.0074,73.76,94,100,2.26,light rain
433,Mbanza-Ngungu,CD,-5.25,14.8667,65.17,77,7,4.92,clear sky
434,Iskateley,RU,67.6803,53.1512,48.43,94,100,13.0,light rain
435,Deputatskiy,RU,69.3,139.9,59.95,46,82,15.35,broken clouds
436,Strand,ZA,-34.1069,18.8275,57.43,90,71,5.84,light rain
437,Askiz,RU,53.1319,90.5264,63.72,68,99,8.61,overcast clouds
438,Tsiroanomandidy,MG,-18.7667,46.0333,52.43,83,0,3.11,clear sky
439,Lac Du Bonnet,CA,50.2536,-96.0612,63.46,78,61,0.78,broken clouds
440,Port Macquarie,AU,-31.4333,152.9167,58.89,94,75,2.3,broken clouds
441,Benghazi,LY,32.1167,20.0667,78.15,72,0,9.69,clear sky
442,Ust-Kuyga,RU,70.0167,135.6,76.46,45,88,3.15,overcast clouds
443,Fougamou,GA,-1.2154,10.5838,68.11,86,96,1.54,overcast clouds
444,El Retorno,CO,2.3302,-72.6276,71.76,98,98,2.1,moderate rain
445,Touros,BR,-5.1989,-35.4608,74.3,88,62,13.04,broken clouds
446,Portland,US,45.5234,-122.6762,79.56,58,89,5.01,overcast clouds
447,Ouesso,CG,1.6136,16.0517,69.26,99,100,2.19,overcast clouds
448,Pangai,TO,-19.8,-174.35,75.45,76,97,18.1,overcast clouds
449,Tura,IN,25.5198,90.2201,80.82,82,100,2.21,overcast clouds
450,Maniitsoq,GL,65.4167,-52.9,45.86,82,100,3.71,overcast clouds
451,Koulikoro,ML,14.0,-7.75,78.71,72,100,5.03,light rain
452,Lasa,IT,46.6166,10.7002,67.37,82,100,2.59,overcast clouds
453,Apollonia,GR,36.9716,24.7231,71.19,77,0,18.61,clear sky
454,Honiara,SB,-9.4333,159.95,86.86,61,10,4.59,clear sky
455,Ishurdi,BD,24.1333,89.0833,85.77,72,99,9.06,overcast clouds
456,Flinders,AU,-34.5833,150.8552,64.06,74,69,5.99,broken clouds
457,Bone,DE,51.9669,12.1396,63.82,74,100,4.09,overcast clouds
458,Tocopilla,CL,-22.092,-70.1979,60.46,79,98,6.44,overcast clouds
459,Juba,SS,4.8517,31.5825,68.59,93,78,1.05,light rain
460,Casteltermini,IT,37.5405,13.6445,76.23,50,0,2.15,clear sky
461,Homer,US,59.6425,-151.5483,56.77,67,1,11.99,clear sky
462,Tutoia,BR,-2.7619,-42.2744,78.93,84,59,9.15,broken clouds
463,Rawson,AR,-43.3002,-65.1023,40.55,49,100,10.65,overcast clouds
464,Leh,IN,34.1667,77.5833,67.91,24,93,4.74,overcast clouds
465,Caravelas,BR,-17.7125,-39.2481,69.46,84,2,4.45,clear sky
466,Springdale,US,36.1867,-94.1288,87.06,54,19,1.01,few clouds
467,Pombia,IT,45.653,8.6336,78.06,66,40,5.75,scattered clouds
468,Umbita,CO,5.2204,-73.4569,52.77,98,100,1.43,overcast clouds
469,Marzuq,YE,14.4,46.4667,75.81,61,53,7.94,broken clouds
470,Oyama,JP,36.3,139.8,88.59,55,22,2.95,few clouds
471,Manokwari,ID,-0.8667,134.0833,83.14,70,21,7.07,few clouds
472,Lincoln,US,40.8,-96.667,87.87,71,11,11.12,few clouds
473,Ardabil,IR,38.2498,48.2933,59.63,69,0,1.86,clear sky
474,Nome,US,64.5011,-165.4064,50.16,83,100,13.13,light rain
475,Kutum,SD,14.2,24.6667,78.31,46,69,5.66,broken clouds
476,Rongcheng,CN,30.634,117.8517,91.11,66,89,8.93,overcast clouds
477,Channel-Port Aux Basques,CA,47.5702,-59.1367,61.88,99,100,12.15,overcast clouds
478,Kiunga,PG,-6.1219,141.2906,78.57,91,78,2.89,broken clouds
479,Mahibadhoo,MV,3.7833,72.9667,82.69,74,100,17.54,overcast clouds
480,Dhidhdhoo,MV,6.8833,73.1,81.48,79,100,18.05,overcast clouds
481,Ugoofaaru,MV,5.6667,73.0,81.86,78,100,16.49,overcast clouds
482,Ibiruba,BR,-28.6275,-53.0897,60.44,95,79,2.64,broken clouds
483,Alvorada,BR,-12.48,-49.1247,75.6,36,0,3.11,clear sky
484,Huilong,CN,31.8111,121.655,92.93,68,17,9.57,few clouds
485,Yerbogachen,RU,61.2767,108.0108,73.08,53,100,7.56,overcast clouds
486,Valjevo,RS,44.2751,19.8982,70.79,30,0,5.86,clear sky
487,Brekstad,NO,63.687,9.6654,52.0,87,40,9.22,scattered clouds
488,Manyana,BW,-23.4,21.7167,54.54,62,0,7.63,clear sky
489,Ust-Tsilma,RU,65.441,52.1498,53.8,78,100,5.95,overcast clouds
490,Samarai,PG,-10.6167,150.6667,81.99,74,67,7.87,broken clouds
491,Kuhdasht,IR,33.535,47.6061,73.58,21,0,8.03,clear sky
492,Lanzhou,CN,36.0564,103.7922,75.9,39,0,2.35,clear sky
493,Kalangala,UG,-0.3089,32.225,73.38,62,90,11.61,overcast clouds
494,Russell,US,32.3502,-85.1999,75.96,72,54,0.96,broken clouds
495,San Javier,ES,37.8063,-0.8374,78.75,74,0,2.3,clear sky
496,Khash,IR,28.2211,61.2158,77.04,58,48,2.21,scattered clouds
497,San Borja,BO,-14.8167,-66.85,73.36,68,10,1.41,clear sky
498,Fortuna,US,40.5982,-124.1573,63.66,74,1,7.56,clear sky
499,High Level,CA,58.5169,-117.136,67.42,49,87,6.71,overcast clouds
500,Erzin,TR,36.9559,36.2,73.24,62,0,1.97,clear sky
501,Nantucket,US,41.2835,-70.0995,78.01,72,40,8.05,mist
502,Nyuksenitsa,RU,60.4128,44.2397,62.01,87,20,4.18,few clouds
503,Esfahan,IR,32.6572,51.6776,69.44,15,0,2.64,clear sky
504,Gladstone,AU,-23.85,151.25,69.73,56,0,9.22,clear sky
505,Port Arthur,CN,38.8,121.2667,75.42,89,100,2.51,overcast clouds
506,Fort Nelson,CA,58.8053,-122.7002,73.85,40,24,7.05,few clouds
507,Mattru,SL,7.6244,-11.8332,72.32,97,100,2.13,overcast clouds
508,El Rosario,MX,24.2556,-107.1828,75.42,86,100,8.77,overcast clouds
509,Yiyang,CN,28.5892,112.3283,88.39,67,57,5.88,broken clouds
510,Gazimurskiy Zavod,RU,51.5461,118.3266,77.59,54,4,13.53,clear sky
511,Lensk,RU,60.7253,114.9278,75.42,61,96,7.76,overcast clouds
512,Lom Sak,TH,16.7798,101.2422,75.58,95,100,1.74,overcast clouds
513,Pandan,PH,14.0453,124.1694,85.06,75,100,3.58,overcast clouds
514,Weyburn,CA,49.6668,-103.8511,72.0,59,93,14.07,overcast clouds
515,Kamsack,CA,51.5667,-101.9009,63.55,85,83,6.44,broken clouds
516,Talaya,RU,61.3833,152.75,67.69,31,4,4.56,clear sky
517,Nacala,MZ,-14.5428,40.6728,66.11,91,0,6.22,clear sky
518,Natal,BR,-5.795,-35.2094,74.05,94,20,4.61,few clouds
519,Teguldet,RU,57.3064,88.1667,58.08,98,99,8.88,light rain
520,Fukue,JP,32.6881,128.8419,78.96,71,84,1.88,broken clouds
521,Kahului,US,20.8947,-156.47,80.83,80,15,11.99,few clouds
522,Oksfjord,NO,70.2396,22.3479,51.98,89,100,11.77,overcast clouds
523,Allonnes,FR,47.9674,0.1581,62.64,88,100,4.61,overcast clouds
524,Oristano,IT,39.9,8.6,74.64,57,0,4.29,clear sky
525,Camana,PE,-16.6228,-72.7111,60.64,83,83,4.74,broken clouds
526,Tarko-Sale,RU,64.9225,77.785,48.81,84,100,13.15,light rain
527,La Rioja,ES,42.25,-2.5,56.98,92,87,2.95,overcast clouds
528,Kribi,CM,2.95,9.9167,74.84,89,100,7.36,light rain
529,Praia Da Vitoria,PT,38.7333,-27.0667,70.75,94,100,2.95,overcast clouds
530,Mogadishu,SO,2.0371,45.3438,75.36,81,85,16.67,light rain
531,Nelson Bay,AU,-32.7167,152.15,66.09,64,1,5.01,clear sky
532,Kuna,US,43.4918,-116.4201,94.66,14,0,8.05,clear sky
533,Waingapu,ID,-9.6567,120.2641,81.41,52,17,13.51,few clouds
534,Tucurui,BR,-3.7661,-49.6725,77.9,54,41,0.6,scattered clouds
535,Wukari,NG,7.85,9.7833,71.8,94,99,6.33,overcast clouds
536,Pouebo,NC,-20.4,164.5667,74.75,91,100,10.51,heavy intensity rain
537,Paamiut,GL,61.994,-49.6678,44.92,85,0,11.56,clear sky
538,Hauterive,FR,46.0901,3.4459,74.16,88,100,1.77,overcast clouds
539,Montrose,US,38.4166,-108.2673,78.51,20,53,6.67,broken clouds
540,Kathmandu,NP,27.7167,85.3167,70.02,94,75,0.0,broken clouds
541,Birjand,IR,32.8663,59.2211,77.9,20,0,13.22,clear sky
542,Mossendjo,CG,-2.9506,12.7261,62.91,92,50,1.61,scattered clouds
543,Kyra,RU,49.5776,111.9753,66.54,70,80,7.25,broken clouds
544,Bilokurakyne,UA,49.5341,38.7307,54.36,95,65,6.46,broken clouds
545,Tome,CL,-36.6167,-72.95,52.21,93,100,5.55,overcast clouds
546,Kaputa,ZM,-8.4689,29.6619,65.17,61,1,4.83,clear sky
547,Evensk,RU,61.95,159.2333,66.42,39,4,6.85,clear sky
548,Colares,PT,38.7992,-9.4469,67.75,76,0,24.0,clear sky
549,Yeppoon,AU,-23.1333,150.7333,71.38,63,0,7.65,clear sky
550,Lorengau,PG,-2.0226,147.2712,84.9,72,28,11.07,scattered clouds
551,Bako,ET,5.7833,36.5667,62.4,68,42,6.08,scattered clouds
552,Sampit,ID,-2.5333,112.95,84.51,70,43,2.93,scattered clouds
553,Traralgon,AU,-38.1833,146.5333,62.01,49,97,1.45,overcast clouds
554,Nuevitas,CU,21.5453,-77.2644,80.49,83,17,11.05,few clouds
555,Balkhash,KZ,46.844,74.9804,74.01,28,0,15.66,clear sky
556,Kaka,TM,37.3482,59.6143,83.14,58,0,12.17,clear sky
557,Monforte De Lemos,ES,42.5216,-7.5142,60.57,99,11,1.7,few clouds
558,Molteno,ZA,-31.3968,26.3625,49.32,49,100,7.14,overcast clouds
559,Bondowoso,ID,-7.9135,113.8214,81.66,66,15,2.26,few clouds
560,Catamarca,AR,-28.4696,-65.7852,65.77,58,100,5.35,overcast clouds
561,Sinnamary,GF,5.3833,-52.95,77.79,86,22,6.71,few clouds
562,Los Llanos De Aridane,ES,28.6585,-17.9182,69.12,90,100,12.66,overcast clouds
563,Mason City,US,43.1536,-93.201,81.09,79,0,4.61,clear sky
564,Myaundzha,RU,63.0494,147.1858,71.83,48,79,3.8,broken clouds
565,Ukiah,US,39.1502,-123.2078,91.36,44,0,5.95,clear sky
566,Jutai,BR,-5.1833,-68.9,72.34,98,84,0.85,broken clouds
567,Valparaiso,CL,-33.0393,-71.6273,52.48,94,0,5.01,clear sky
568,Okha,RU,53.5739,142.9478,62.62,61,91,9.53,overcast clouds
569,Concordia,AR,-31.393,-58.0209,63.79,100,1,13.0,clear sky
570,Kudahuvadhoo,MV,2.6708,72.8944,81.36,78,91,15.79,overcast clouds
571,Kalmunai,LK,7.4167,81.8167,80.4,80,77,5.53,broken clouds
572,Sao Felix Do Xingu,BR,-6.6447,-51.995,72.48,49,76,1.95,broken clouds
573,Yining,CN,29.0361,114.5636,92.7,56,18,5.75,few clouds
574,Sao Jose Da Coroa Grande,BR,-8.8978,-35.1478,74.43,84,100,8.14,overcast clouds
575,Khorixas,NA,-20.3667,14.9667,62.87,34,0,5.75,clear sky
576,Aras,ES,42.5617,-2.356,61.21,72,100,10.36,overcast clouds
577,Eldorado,BR,-23.7869,-54.2836,66.69,58,99,5.41,overcast clouds
578,Solnechnyy,RU,50.7214,136.6319,59.59,89,100,6.04,overcast clouds
579,Galbshtadt,RU,53.2264,78.9845,65.43,56,5,5.86,clear sky
580,Machali,CL,-34.1833,-70.6667,52.61,55,9,3.74,clear sky
581,Orbetello,IT,42.4408,11.2196,75.6,80,0,2.75,clear sky
582,Siguiri,GN,11.6667,-9.5,72.52,93,94,1.3,overcast clouds
583,West Bay,KY,19.3667,-81.4167,84.99,84,20,10.36,few clouds
584,Laukaa,RU,58.7372,29.8453,59.97,81,8,5.12,clear sky
585,Sorong,ID,-0.8833,131.25,83.37,70,14,10.85,few clouds
586,Bueu,ES,42.3246,-8.785,63.55,82,0,4.61,clear sky
587,Bell Ville,AR,-32.6259,-62.6887,55.67,75,2,6.89,clear sky
588,Kuldur,RU,49.2167,131.6333,69.87,84,95,1.54,overcast clouds
589,Eyl,SO,7.9803,49.8164,77.16,69,5,20.45,clear sky
590,Sharjah,AE,25.3573,55.4033,93.88,64,54,8.01,broken clouds
591,Yaring,TH,6.8662,101.3689,81.28,76,98,3.96,overcast clouds
592,Tombouctou,ML,20.0,-3.0,94.01,29,84,10.25,broken clouds
593,Nanortalik,GL,60.1432,-45.2371,45.55,85,53,1.66,broken clouds
594,Dakar,SN,14.6937,-17.4441,76.08,83,100,12.03,light rain
595,Betioky,MG,-23.7167,44.3833,62.01,70,1,8.05,clear sky
596,Luwuk,ID,-0.9516,122.7875,81.75,79,39,7.0,scattered clouds
597,Diapaga,BF,12.0708,1.7889,75.04,88,94,6.08,overcast clouds
598,Marshfield,US,44.6689,-90.1718,77.88,69,100,3.44,overcast clouds
599,Bakchar,RU,57.0186,82.0711,57.76,82,5,6.78,clear sky
600,Nelson,NZ,-41.2833,173.2833,53.29,72,100,1.01,overcast clouds
601,Wanning,CN,18.8003,110.3967,85.66,69,0,1.39,clear sky
602,Payakumbuh,ID,-0.2202,100.6308,77.27,83,57,2.44,broken clouds
603,Jiayuguan,CN,39.8167,98.3,82.85,12,0,9.44,clear sky
604,Campbellton,CA,48.0075,-66.6727,67.21,73,30,2.37,scattered clouds
605,Rocha,UY,-34.4833,-54.3333,50.54,98,19,4.74,few clouds
606,Boa Vista,BR,2.8197,-60.6733,82.38,78,75,1.14,broken clouds
607,Ternate,ID,0.8,127.4,82.54,73,24,6.35,few clouds
608,Rayagada,IN,19.1667,83.4167,80.47,87,100,0.83,moderate rain
609,San Patricio,US,28.017,-97.5169,86.09,73,5,14.29,clear sky
610,Vila,PT,42.0304,-8.1588,52.68,85,0,5.46,clear sky
611,Rio Grande,BR,-32.035,-52.0986,59.95,98,100,2.86,overcast clouds
612,Armacao De Pera,PT,37.1026,-8.357,78.71,47,0,7.87,clear sky
613,Shaunavon,CA,49.6501,-108.4181,70.65,47,73,8.34,broken clouds
614,Bathurst,AU,-33.4166,149.5806,61.97,59,35,1.99,scattered clouds
615,Forestville,US,38.8451,-76.875,86.25,72,0,6.91,clear sky
616,Saint Anthony,US,45.0205,-93.218,86.94,53,0,8.05,clear sky
617,Alofi,NU,-19.0595,-169.9187,76.3,77,21,11.18,light rain
618,Gornyy,RU,55.1153,83.9059,59.04,86,13,7.47,light rain
619,Batouri,CM,4.4333,14.3667,65.68,99,95,1.72,overcast clouds
620,Malanje,AO,-9.5402,16.341,64.8,50,100,2.37,overcast clouds
621,San Lawrenz,MT,36.0553,14.204,72.81,65,0,5.73,clear sky
622,Saint-Georges,GD,12.0564,-61.7485,80.28,78,20,5.75,few clouds
623,Mamit,IN,23.9333,92.4833,74.23,100,75,0.0,mist
624,Kommunisticheskiy,RU,61.6789,64.4819,50.72,65,10,6.8,clear sky
625,Vila Velha,BR,-20.3297,-40.2925,71.55,91,75,3.44,broken clouds
626,Berlevag,NO,70.8578,29.0864,51.8,76,20,12.66,few clouds
627,Lukovetskiy,RU,64.2956,41.9211,61.11,98,100,4.65,overcast clouds
628,Smithers,CA,54.7804,-127.1743,74.23,38,2,6.64,clear sky
629,Itoman,JP,26.1247,127.6694,89.98,82,75,12.66,light rain
630,Ginda,IN,30.6945,78.4932,70.41,88,94,0.81,overcast clouds
631,Fruitville,US,27.3298,-82.4576,78.93,88,75,0.0,broken clouds
632,Vostok,RU,46.4856,135.8833,66.42,70,99,2.98,overcast clouds
633,Shimoda,JP,34.6667,138.95,83.64,64,0,17.43,clear sky
634,Camopi,GF,3.1655,-52.3158,72.14,98,52,2.13,broken clouds
635,Stolin,BY,51.8912,26.846,60.49,78,0,5.44,clear sky
636,Deep River,CA,46.1001,-77.4995,64.54,70,0,4.27,clear sky
637,Powell,US,40.1578,-83.0752,78.8,76,0,4.61,clear sky
638,Lazaro Cardenas,MX,17.9583,-102.2,80.92,78,100,1.57,overcast clouds
639,Beian,NO,63.6559,9.5683,52.0,87,40,9.22,scattered clouds
640,Santiago De Cao,PE,-7.9589,-79.2392,60.93,88,75,6.91,fog
641,Caohe,CN,30.2297,115.4335,86.99,75,42,10.45,scattered clouds
642,Keti Bandar,PK,24.1447,67.4497,83.16,84,68,15.66,broken clouds
643,Salamiyah,SY,35.0113,37.0532,69.3,69,0,6.82,clear sky
644,Robertsport,LR,6.7533,-11.3686,77.23,80,93,12.06,overcast clouds
645,Contamana,PE,-7.3333,-75.0167,77.54,67,19,3.85,few clouds
646,Nakhon Thai,TH,17.1006,100.8374,74.89,98,100,2.53,light rain
647,Sambava,MG,-14.2667,50.1667,67.41,87,84,9.6,light rain
648,Tigzirt,DZ,36.8886,4.1198,79.25,59,0,3.22,clear sky
649,San Cosme Y Damian,PY,-27.3167,-56.35,71.78,81,89,6.11,overcast clouds
650,Port Bannatyne,GB,55.8566,-5.065,59.05,94,100,4.63,overcast clouds
651,Batala,IN,31.8186,75.2028,83.98,81,100,6.33,overcast clouds
652,Koumac,NC,-20.5667,164.2833,76.51,85,97,14.67,moderate rain
653,Sur,OM,22.5667,59.5289,85.6,69,100,8.52,overcast clouds
654,Galle,LK,6.0367,80.217,79.2,86,74,15.08,broken clouds
655,Powell River,CA,49.8496,-124.5361,71.33,70,100,1.81,overcast clouds
656,Darhan,MN,49.4867,105.9228,62.53,64,29,3.94,scattered clouds
657,Pitanga,BR,-24.7572,-51.7614,57.25,74,98,3.15,overcast clouds
658,Kalabo,ZM,-14.97,22.6814,59.18,49,75,6.76,broken clouds
659,Montepuez,MZ,-13.1256,38.9997,59.76,91,0,5.3,clear sky
660,Narodychi,UA,51.2029,29.0823,57.94,85,5,2.21,clear sky
661,Anloga,GH,5.7947,0.8973,75.34,85,56,10.8,broken clouds
662,Goedereede,NL,51.8175,3.9806,60.8,85,28,1.01,scattered clouds
663,Tual,ID,-5.6667,132.75,77.94,78,100,15.43,overcast clouds
664,Leesburg,US,39.1157,-77.5636,85.1,78,0,4.61,clear sky
665,Poshekhonye,RU,58.4993,39.1353,64.04,76,87,0.76,overcast clouds
666,Zile,TR,40.3031,35.8864,54.82,93,0,1.34,clear sky
667,Taltal,CL,-25.4,-70.4833,57.0,85,100,3.22,overcast clouds
668,Keningau,MY,5.3378,116.1602,84.34,66,33,1.95,scattered clouds
669,Sakaiminato,JP,35.55,133.2333,76.53,75,26,6.6,scattered clouds
670,Harindanga,IN,22.0383,88.3214,84.7,75,100,10.56,overcast clouds
671,Comodoro Rivadavia,AR,-45.8667,-67.5,28.26,59,0,5.75,clear sky
672,Carira,BR,-10.3608,-37.7011,64.36,96,100,4.79,overcast clouds
673,Sandomierz,PL,50.6827,21.749,71.65,82,5,2.93,clear sky
674,Tiznit,MA,29.5833,-9.5,79.99,38,39,1.54,scattered clouds
675,Mentakab,MY,3.4865,102.3516,81.14,82,74,0.78,broken clouds
676,Caxito,AO,-8.5785,13.6643,66.15,93,100,0.4,overcast clouds
677,Ligayan,PH,4.6533,119.4706,83.44,71,84,4.61,broken clouds
678,Rudnichnyy,RU,59.617,52.4703,59.25,85,42,2.71,scattered clouds
679,Elizabeth City,US,36.2946,-76.2511,84.22,84,0,6.91,clear sky
680,Kabare,CD,-2.4683,28.8242,63.21,66,91,1.16,overcast clouds
681,Fuerte Olimpo,PY,-21.0415,-57.8738,73.62,40,5,5.12,clear sky
682,Sabang,ID,5.8933,95.3214,81.64,73,100,1.41,light rain
683,Aswan,EG,24.0934,32.907,84.07,26,75,10.47,broken clouds
684,Oranjestad,AW,12.524,-70.027,82.35,83,20,16.11,few clouds
685,Makeni,SL,8.8833,-12.05,72.23,98,100,2.24,light rain
686,Elat,IL,29.5581,34.9482,82.24,57,0,11.5,clear sky
687,Maragogi,BR,-9.0122,-35.2225,73.96,86,100,7.72,overcast clouds
688,Musiri,IN,10.9333,78.45,78.84,75,100,11.16,overcast clouds
689,Campo Verde,BR,-20.4167,-54.0667,68.92,40,11,2.26,few clouds
690,Muriwai Beach,NZ,-36.8167,174.45,57.42,71,100,9.91,overcast clouds
691,Jardim,BR,-21.4803,-56.1381,70.12,45,93,1.81,overcast clouds
692,Levelland,US,33.5873,-102.378,83.19,56,56,3.94,broken clouds
693,Naze,JP,28.3667,129.4833,82.47,64,95,3.6,overcast clouds
694,Prainha,BR,-1.8,-53.48,75.87,79,71,3.11,broken clouds
695,Soligalich,RU,59.0778,42.2864,60.76,88,25,4.34,scattered clouds
696,Ikom,NG,5.9667,8.7063,72.23,98,100,2.04,light rain
697,Vardo,NO,70.3705,31.1107,51.78,82,20,6.91,few clouds
698,Mustafakemalpasa,TR,40.0353,28.4117,68.05,64,0,2.24,clear sky
699,Snasa,NO,64.2457,12.3778,43.63,94,32,2.62,scattered clouds
700,Minab,IR,27.1467,57.0801,88.02,78,100,4.21,overcast clouds
701,Labuhan,ID,-6.8844,112.2051,81.07,71,14,7.23,few clouds
702,Manaure,CO,11.7751,-72.4445,81.55,73,76,14.65,broken clouds
703,Shenzhen,CN,22.5455,114.0683,93.85,72,0,6.02,clear sky
704,Lircay,PE,-12.9896,-74.7205,45.55,76,10,4.03,clear sky
705,Okhotsk,RU,59.3833,143.3,66.13,76,72,6.82,broken clouds
